[
    {
        "district": "Abim",
        "name": "Abim Hospital",
        "lat": "2.698892",
        "lon": "33.657788"
    },
    {
        "district": "Adjumani",
        "name": "Adjumani Hospital",
        "lat": "3.374176",
        "lon": "31.792498"
    },
    {
        "district": "Kampala/Makindye Division",
        "name": "Kibuli Hospital",
        "lat": "0.309167",
        "lon": "32.595278"
    },
    {
        "district": "Kampala/Makindye Division",
        "name": "Kiruddu National Referral Hospital",
        "lat": "0.248056",
        "lon": "32.612500"
    },
    {
        "district": "Kampala/Makindye Division",
        "name": "St. Francis Hospital - Nsambya", 
        "lat": "0.3010960161674231",
        "lon": "32.58746725266003"
    },
    {
        "district": "Kampala/Makindye Division",
        "name": "International Hospital Kampala",  
        "lat": "0.306059084642914",
        "lon": "32.611479692026926"
    },
    {
        "district": "Kampala/Makindye Division",
        "name": "Kisugu Health Centre",   
        "lat": "0.307058702876811",
        "lon": "32.61157128202336"
    },
    {
        "district": "Kampala/Makindye Division",
        "name": "St Ponsiano Catholic Church",   
        "lat": "0.25598",
        "lon": "32.60501"  
    },
    {
        "district": "Kampala/Makindye Division",
        "name": "Ggaba Model Primary & Nursery School",   
        "lat": "0.2574258", 
        "lon": "32.6344913"  
    },
    {
        "district": "Kampala/Makindye Division",
        "name": "Victory Church Wabigalo",     
        "lat": "0.3078738044218752", 
        "lon": "32.60357958943172"  
    },
    {
        "district": "Kampala/Makindye Division",
        "name": "Kairos Primary & Secondary School",     
        "lat": "0.2930220293574968", 
        "lon": "32.62889025080798"   
    },
    {
        "district": "Kampala/Makindye Division",
        "name": "Katwe Primary School",     
        "lat": "0.3002163",  
        "lon": "32.5792077"   
    },
    {
        "district": "Kampala/Central Division",
        "name": "Kamwokya Christian Caring Community",  
        "lat": "0.3434346517599219",
        "lon": "32.58981844364343"
    },
    {
        "district": "Kampala/Central Division",
        "name": "Kisenyi Health Centre IV",  
        "lat": "0.30779877340502565",
        "lon": "32.57023179260863"
    },
    {
        "district": "Kampala/Central Division",
        "name": "City Hall Clinic",   
        "lat": "0.3071651455097963",
        "lon": "32.61209695080793"
    },
    {
        "district": "Kampala/Central Division",  
        "name": "Bat Valley Primary School",   
        "lat": "0.32276460175165184",
        "lon": "32.57398009128373"
    },
    {
        "district": "Kampala/Central Division",  
        "name": "Nakivubo Blue Primary School",    
        "lat": "0.3088040015802239",
        "lon": "32.576201754775845"
    },
    {
        "district": "Kampala/Central Division",  
        "name": "Old Kampala Hospital",     
        "lat": "0.3162727872082472",
        "lon": "32.56927751456353"
    },
    {
        "district": "Kampala/Central Division",  
        "name": "Kitante Primary School",     
        "lat": "0.3341408155260778",  
        "lon": "32.5830769452516"
    },
    {
        "district": "Kampala/Central Division",  
        "name": "Kololo Airstrip",     
        "lat": "0.32663066553527825",   
        "lon": "32.595004978175595"   
    },
    {
        "district": "Kampala/Rubaga Division",
        "name": "Mengo Hospital",
        "lat": "0.312778",
        "lon": "32.558333"
    },
    {
        "district": "Kampala/Rubaga Division",
        "name": "Rubaga Hospital",
        "lat": "0.304167",
        "lon": "32.552778"
    },
    {
        "district": "Kampala/Rubaga Division",
        "name": "Kawaala Health Centre III", 
        "lat": "0.339125301368235",
        "lon": "32.554700812184215"
    },
    {
        "district": "Kampala/Rubaga Division",
        "name": "Kitebi Health Centre III",  
        "lat": "0.2770556888232911",
        "lon": "32.55013324318982"
    },
    {
        "district": "Kampala/Rubaga Division",
        "name": "Namirembe Infants Primary School",   
        "lat": "0.32169115504822393",
        "lon": "32.56156092660409"
    },
    {
        "district": "Kampala/Rubaga Division",
        "name": "Nateete Muslim Primary School",    
        "lat": "0.3076253424148447",
        "lon": "32.537848854593314"
    },
    {
        "district": "Kampala/Rubaga Division",
        "name": "Namungoona Kigobe Primary School",     
        "lat": "0.3264133437102492",
        "lon": "32.53847469683994"
    },
    {
        "district": "Kampala/Rubaga Division",
        "name": "Kabowa Primary School",      
        "lat": "0.28347468871169174",
        "lon": "32.55723984339981"
    },
    {
        "district": "Kampala/Kawempe Division",
        "name": "St. Stephen Mpererwe Hospital",
        "lat": "0.39965101189796626",
        "lon": "32.57721943003469"
    },
    {
        "district": "Kampala/Kawempe Division",
        "name": "Komamboga Health Center III",  
        "lat": "0.3909772286180764",
        "lon": "32.58505764101991"
    },
    {
        "district": "Kampala/Kawempe Division",
        "name": "Kawempe National Referral Hospital",  
        "lat": "0.361944",
        "lon": "32.561389"
    },
    {
        "district": "Kampala/Kawempe Division",
        "name": "Kawempe Division Offices",  
        "lat": "0.35373281553708374",  
        "lon": "32.56089092567598"
    },
    {
        "district": "Kampala/Kawempe Division",
        "name": "St. Peterâ€™s Kanyanya Primary School",   
        "lat": "0.3706053714048993",  
        "lon": "32.58285656985602"
    },
    {
        "district": "Kampala/Kawempe Division",
        "name": "Mulago Hospital",   
        "lat": "0.3389",  
        "lon": "32.5759"  
    },
    {
        "district": "Kampala/Kawempe Division",
        "name": "St Martin Primary School",   
        "lat": "0.34623352935481083",   
        "lon": "32.57599710847983"  
    },
    {
        "district": "Kampala/Kawempe Division",
        "name": "Komamboga Health Center III",   
        "lat": "0.39086994275680287",   
        "lon": "32.58503618334789"   
    },
    {
        "district": "Kampala/Nakawa Division",
        "name": "Butabika Hospital",  
        "lat": "0.3149522585584162",
        "lon": "32.65854348890452"
    },
    {
        "district": "Kampala/Nakawa Division",
        "name": "Kiswa Health Centre III",   
        "lat": "0.321179712940706",
        "lon": "32.617584021423816"
    },
    {
        "district": "Kampala/Nakawa Division",
        "name": "China-Uganda Friendship hospital",    
        "lat": "0.32991181621948507",
        "lon": "32.606283437315966"
    },
    {
        "district": "Kampala/Nakawa Division",
        "name": "UMC Victoria Hospital, Bukoto",     
        "lat": "0.350141815192438",
        "lon": "32.604006556364006"
    },
    {
        "district": "Kampala/Nakawa Division",
        "name": "Mbuya Military Health Center",     
        "lat": "0.32626232462746907",
        "lon": "32.62240615636421"  
    },
    {
        "district": "Kampala/Nakawa Division",
        "name": "St. Paul's Church of Uganda, Kulambiro",     
        "lat": "0.37326035797341894",  
        "lon": "32.610088799220335"   
    },
    {
        "district": "Kampala/Nakawa Division",
        "name": "Ntinda Primary School",     
        "lat": "0.35147448609063997",
        "lon": "32.61699468890434"    
    },
    {
        "district": "Kampala/Nakawa Division",
        "name": "Nakawa Division Offices",      
        "lat": "0.33278447227830826",
        "lon": "32.610911054512115"    
    },
    {
        "district": "Kampala/Nakawa Division",
        "name": "Kyambogo University Medical Center",      
        "lat": "0.3459194016879745",  
        "lon": "32.63317246615192"    
    },
    {
        "district": "Kaliro",
        "name": "BUMANYA HC IV",
        "lat": "1.0019482703874842",
        "lon": "33.495452475937796"
    },
    {
        "district": "Kaliro",
        "name": "Gadumire Health Centre III",
        "lat": "1.105904", 
        "lon": "33.510762"
    },
    {
        "district": "Kaliro",
        "name": "Namugongo Health Center III",
        "lat": "0.8926", 
        "lon": "33.47078" 	
    },
    {
        "district": "Kaliro",
        "name": "Nawaikoke Health Centre III",
        "lat": "1.089615", 
        "lon": "33.403712" 	
    },
    {
        "district": "Kalangala",
        "name": "Kalangala HC IV",
        "lat": "-0.31654850686447317",
        "lon": "32.315175956293565"
    },
    {
        "district": "Kalangala",
        "name": "Bubeke HC III",
        "lat": "-0.3201854263954266",
        "lon": "32.579081337318364"
    },
    {
        "district": "Kalangala",
        "name": "Bufumira HC III",
        "lat": "-0.3375126132506878",
        "lon": "32.38241413493893"
    },
    {
        "district": "Kalangala",
        "name": "Mazinga HC III",
        "lat": "-0.6671490778811184",
        "lon": "32.33044757541608"
    },
    {
        "district": "Iganga",
        "name": "Iganga Hospital",
        "lat": "0.6163771792156301",
        "lon": "33.485704127527335"
    },
    {
        "district": "Iganga",
        "name": "Bulamagi Health Centre III",
        "lat": "0.6288972",  	 
        "lon": "33.4412435"
    },
    {
        "district": "Iganga",
        "name": "Namungalwe Health Centre III",  
        "lat": "0.7544896",  	 
        "lon": "33.4359879"
    },
    {
        "district": "Iganga",
        "name": "Bugono Health Centre IV",  
        "lat": "0.7944915",  	  
        "lon": "33.4537464"
    },
    {
        "district": "Iganga",
        "name": "Busowobi Health Centre III",  
        "lat": "0.6101994",  	   	 
        "lon": "33.5338047"
    },
    {
        "district": "Soroti",
        "name": "Soroti Regional Referral Hospital",  
        "lat": "1.7159005948555333",
        "lon": "33.614485510328066"
    },
    {
        "district": "Soroti",
        "name": "Western Health Centre III",  
        "lat": "1.710587190074796", 
        "lon": "33.60061153890249"
    },
    {
        "district": "Soroti",
        "name": "Gweri Health Centre III",  
        "lat": "1.7294038280902981", 
        "lon": "33.73203624766954" 
    },
    {
        "district": "Tororo",
        "name": "Tororo General Hospital",   
        "lat": "0.6938898482887073",
        "lon": "34.18723507964271"
    },
    {
        "district": "Tororo",
        "name": "Mulanda Health Centre IV",    
        "lat": "0.6844078012195137",
        "lon": "34.00986344570078"
    },
    {
        "district": "Tororo",
        "name": "Nagongera Health Centre IV",     
        "lat": "0.76975",
        "lon": "34.02561"
    },
    {
        "district": "Tororo",
        "name": "Osukuru Health Centre III",     
        "lat": "0.64722", 
        "lon": "34.17162"
    },
    {
        "district": "Wakiso/Entebbe", 
        "name": "Entebbe General Referral Hospital",   
        "lat": "0.06413598148843584",
        "lon": "32.471818485660094"
    },
    {
        "district": "Wakiso/Busiro South", 
        "name": "Kisubi Hospital",     
        "lat": "0.12214747103975",
        "lon": "32.53686685312011"
    },
    {
        "district": "Wakiso/Busiro South", 
        "name": "Nakawuka Health Centre III",     
        "lat": "0.20519755134988205",
        "lon": "32.45338378856828"  
    },
    {
        "district": "Wakiso/Busiro North", 
        "name": "Namayumba Health Centre IV",     
        "lat": "0.5355192259181283", 
        "lon": "32.28480513180526"  
    },
    {
        "district": "Wakiso/Busiro North", 
        "name": "Namayumba EPI Health Centre III",     
        "lat": "0.5270858266778832",  
        "lon": "32.260289675722156"  
    },
    {
        "district": "Wakiso/Busiro North", 
        "name": "Kakiri Health Centre III",     
        "lat": "0.42327375133594636",  
        "lon": "32.376987882726084"   
    },
    {
        "district": "Wakiso/Busiro North", 
        "name": "Kiziba Health Centre III",     
        "lat": "0.506736118870535",  
        "lon": "32.36774667790448"   
    },
    {
        "district": "Wakiso/Kyadondo East", 
        "name": "Kasangati HC IV",     
        "lat": "0.4359326", 
        "lon": "32.6014461"
    },
    {
        "district": "Wakiso/Kyadondo East", 
        "name": "Life Link Hospital",     
        "lat": "0.3787373",  
        "lon": "32.6451365"
    },
    {
        "district": "Wakiso/Kyadondo South", 
        "name": "Ndejje Health Center IV",     
        "lat": "0.24993380611281749",  
        "lon": "32.58545652692597"  
    },
    {
        "district": "Wakiso/Kyadondo South", 
        "name": "Doctors' Hospital Sseguku",     
        "lat": "0.23199703105680014",  
        "lon": "32.55211087038367"  
    },
    {
        "district": "Wakiso/Busiro East",
        "name": "Wakiso Health Centre IV",      
        "lat": "0.3972874",  
        "lon": "32.4777642"  
    },
    {
        "district": "Wakiso/Busiro East",
        "name": "Wakiso EPI Health Centre III",      
        "lat": "0.4071682138376836",   
        "lon": "32.46605748943137"  
    },
    {
        "district": "Wakiso/Busiro East",
        "name": "Nsangi Health Center III",       
        "lat": "0.27342201022457013",   
        "lon": "32.46040476562491"  
    },
    {
        "district": "Wakiso/Busiro East",
        "name": "Mende Health Center III",        
        "lat": "0.4578320980361319",   
        "lon": "32.33394918890401"  
    },
    {
        "district": "Wakiso/Busiro East",
        "name": "Bulondo Health Centre III",        
        "lat": "0.45025748379245095",    
        "lon": "32.43395445636373"  
    },
    {
        "district": "Wakiso/Busiro South",
        "name": "Kajjansi Health Center IV",         
        "lat": "0.2164578886783736",    
        "lon": "32.51067494878002"  
    },
    {
        "district": "Wakiso/Entebbe",
        "name": "Entebbe Grade B Hospital",      
        "lat": "0.059367357206823713",   
        "lon": "32.470937666680285"  
    },
    {
        "district": "Yumbe",
        "name": "Yumbe Health Centre IV",      
        "lat": "3.4689660",   
        "lon": "31.2461562"   
    },
    {
        "district": "Zombo",
        "name": "Nyapea Hospital",      
        "lat": "2.4606697",   
        "lon": "30.9498491"    
    },
    {
        "district": "Mukono",
        "name": "Kasawo Health Centre III",       
        "lat": "0.6799562411694008",   
        "lon": "32.82674067545574"    
    },
    {
        "district": "Mukono",
        "name": "Mukono General Hospital",       
        "lat": "0.3610001718419603",   
        "lon": "32.747189126203246"     
    },
    {
        "district": "Mukono",
        "name": "St Francis Nagalama Hospital",       
        "lat": "0.5258641",   
        "lon": "32.7793731"      
    },
    {
        "district": "Mubende",
        "name": "Kasambya (Kalungu) HC III",        
        "lat": "-0.02063477909956498",   
        "lon": "31.739007556892776"      
    },
    {
        "district": "Mubende",
        "name": "Kitenga Health Center III",        
        "lat": "0.49693195262189815", 
        "lon": "31.50869249921882"       
    },
    {
        "district": "Mubende",
        "name": "Mubende Regional referral Hospital",        
        "lat": "0.5727235504907924",   
        "lon": "31.391871926202693"       
    },
    {
        "district": "Mbale",
        "name": "Busiu Health Center IV",        
        "lat": "0.9250573950341048",    
        "lon": "34.16013739736552"       
    },
    {
        "district": "Mbale",
        "name": "Mbale Regional Referral Hospital",        
        "lat": "1.07722",    
        "lon": "34.17646"       
    },
    {
        "district": "Mbale",
        "name": "Namakwekwe Health center III",         
        "lat": "1.0897733861232328",    
        "lon": "34.1794163965808"       
    },
    {
        "district": "Mbarara",
        "name": "Bwizibwera Health Centre IV",          
        "lat": "-0.43380922911322484",    
        "lon": "30.573389968533984"       
    },
    {
        "district": "Mbarara",
        "name": "Kakoba Health Centre III",          
        "lat": "-0.6039311370844741",    
        "lon": "30.68220197038682"        
    },
    {
        "district": "Mbarara",
        "name": "Mbarara Regional Referral Hospital",          
        "lat": "-0.616389",    
        "lon": "30.658889"        
    },
    {
        "district": "Luweero",
        "name": "Kalagala Health Centre IV",          
        "lat": "0.6184828132515244",     
        "lon": "32.610037503381335"        
    },
    {
        "district": "Luweero",
        "name": "Luwero Hospital",          
        "lat": "0.8210765371271181",      
        "lon": "32.50154398093304"        
    },
    {
        "district": "Busia",
        "name": "Buhehe Health Centre III",          
        "lat": "0.344623",      
        "lon": "34.046708"    
    },
    {
        "district": "Busia",
        "name": "Bulumbi Health Centre III",          
        "lat": "0.492232",      
        "lon": "33.99084"    
    },
    {
        "district": "Busia",
        "name": "Busia Health Centre IV",         
        "lat": "0.4634115761729237",      
        "lon": "34.03504444763343"    
    },
    {
        "district": "Busia",
        "name": "Masafu Hospital",         
        "lat": "0.41339",      
        "lon": "34.03526"    
    },
    {
        "district": "Kabale",
        "name": "Kabale Regional Referral Hospital",         
        "lat": "-1.251111",      
        "lon": "29.989167"    
    },
    {
        "district": "Kabale",
        "name": "Rubaya Health Center IV",          
        "lat": "-1.123946",      
        "lon": "29.861582"    
    },
    {
        "district": "Kabale",
        "name": "Rugarama Hospital",          
        "lat": "-1.244674",      
        "lon": "29.983164"    
    },
    {
        "district": "Kabale",
        "name": "Rushoroza Hospital",           
        "lat": "-1.2890516",      
        "lon": "29.9963052"    
    },
    {
        "district": "Kayunga",
        "name": "Bbaale Health Centre IV",           
        "lat": "1.0995145364204137",       
        "lon": "32.88656477778946"    
    },
    {
        "district": "Kayunga",
        "name": "Galiraya Health Centre III",           
        "lat": "1.3527376",       
        "lon": "32.814703"     
    },
    {
        "district": "Kayunga",
        "name": "Kangulumira Health Centre IV",           
        "lat": "0.5453278",        	 
        "lon": "33.039912"     
    },
    {
        "district": "Kayunga",
        "name": "Kayunga Hospital",           
        "lat": "0.703329",        	 
        "lon": "32.903886"     
    }
] 
